,City,Lat,Lon,Max_Temp,Humidity,Cloudiness,Wind_Speed,Country,Date
0,Tezu,27.92,96.17,79.16,85,100,1.92,IN,1595681505
1,Saldanha,-33.01,17.94,66.2,59,0,9.17,ZA,1595681505
2,Bluff,-46.6,168.33,48.94,82,23,18.59,NZ,1595681506
3,Bredasdorp,-34.53,20.04,71.6,56,0,8.05,ZA,1595681506
4,Caravelas,-17.71,-39.25,73.44,86,100,5.21,BR,1595681506
5,Qaanaaq,77.48,-69.36,44.83,58,0,2.01,GL,1595681506
6,Yellowknife,62.46,-114.35,55.99,93,75,5.82,CA,1595681507
7,Kodīnar,20.79,70.7,84.63,75,100,8.72,IN,1595681507
8,Hirara,24.8,125.28,84.2,89,75,3.36,JP,1595681507
9,Chui,-33.7,-53.46,45.45,81,0,13.04,UY,1595681507
10,Kahului,20.89,-156.47,80.6,65,90,9.17,US,1595681508
11,Chokurdakh,70.63,147.92,71.31,49,97,7.43,RU,1595681508
12,Cape Town,-33.93,18.42,73.0,63,0,16.11,ZA,1595681337
13,Ushuaia,-54.8,-68.3,26.6,86,75,24.16,AR,1595681508
14,Hobart,-42.88,147.33,42.8,87,75,8.05,AU,1595681452
15,Mayo,38.89,-76.51,80.6,88,90,5.82,US,1595681508
16,Ponta do Sol,32.67,-17.1,73.99,69,0,2.15,PT,1595681508
17,Muros,42.78,-9.06,73.99,69,48,11.99,ES,1595681509
18,Tessalit,20.2,1.01,102.45,22,0,16.28,ML,1595681509
19,Upernavik,72.79,-56.15,44.51,91,100,13.33,GL,1595681509
20,Lebu,-37.62,-73.65,49.87,83,100,17.85,CL,1595681509
21,Kapaa,22.08,-159.32,75.2,100,90,18.34,US,1595681509
22,Busselton,-33.65,115.33,63.0,72,100,17.76,AU,1595681510
23,Astoria,46.19,-123.83,55.4,87,90,4.7,US,1595681510
24,Adrar,20.5,-10.07,110.7,6,0,13.02,MR,1595681510
25,Arraial do Cabo,-22.97,-42.03,77.0,61,0,12.75,BR,1595681510
26,Fortuna,40.6,-124.16,50.0,93,90,5.82,US,1595681511
27,Narsaq,60.92,-46.05,50.0,81,75,9.17,GL,1595681511
28,Cagua,10.19,-67.46,78.71,66,11,1.59,VE,1595681511
29,Abhā,18.22,42.51,87.8,25,40,13.87,SA,1595681511
30,Punta Arenas,-53.15,-70.92,26.6,73,20,10.29,CL,1595681512
31,Grindavik,63.84,-22.43,53.6,66,20,21.92,IS,1595681512
32,Alofi,-19.06,-169.92,71.6,88,0,5.82,NU,1595681390
33,Rikitea,-23.12,-134.97,69.55,79,28,21.39,PF,1595681512
34,Irbeyskoye,55.64,95.45,63.41,73,92,2.48,RU,1595681512
35,Torbay,47.67,-52.73,62.01,100,90,9.17,CA,1595681513
36,Faya,18.39,42.45,87.8,25,40,13.87,SA,1595681513
37,New Norfolk,-42.78,147.06,41.0,87,87,2.68,AU,1595681513
38,Mount Gambier,-37.83,140.77,42.8,93,0,4.18,AU,1595681513
39,Puerto Ayora,-0.74,-90.35,68.0,93,78,3.0,EC,1595681513
40,Lagoa,39.05,-27.98,71.44,88,30,16.71,PT,1595681513
41,Tasiilaq,65.61,-37.64,42.8,75,40,10.29,GL,1595681514
42,Palmer,42.16,-72.33,73.99,100,90,3.2,US,1595681514
43,Hilo,19.73,-155.09,75.2,83,90,3.36,US,1595681514
44,Kulhudhuffushi,6.62,73.07,83.07,76,85,10.49,MV,1595681514
45,Dingle,11.0,122.67,78.76,87,39,2.24,PH,1595681515
46,Ibadan,7.39,3.9,82.18,73,16,6.15,NG,1595681515
47,Tuatapere,-46.13,167.68,44.06,86,13,6.2,NZ,1595681515
48,Leshukonskoye,64.9,45.76,74.32,54,100,2.42,RU,1595681516
49,Piet Retief,-27.01,30.81,69.04,23,0,5.48,ZA,1595681516
50,Esperance,-33.87,121.9,57.2,50,100,13.87,AU,1595681516
51,Mar del Plata,-38.0,-57.56,41.0,86,0,5.82,AR,1595681321
52,Muroto-misakicho,33.28,134.15,78.76,85,90,8.63,JP,1595681516
53,Berlevåg,70.86,29.09,63.37,56,0,10.33,NO,1595681516
54,Tombouctou,20.0,-3.0,101.79,24,86,18.01,ML,1595681517
55,Palana,59.12,159.97,45.91,86,0,8.21,RU,1595681517
56,Aklavik,68.22,-135.01,53.6,76,75,3.36,CA,1595681517
57,Hambantota,6.12,81.12,78.8,94,75,8.05,LK,1595681518
58,Nanortalik,60.14,-45.24,43.25,89,100,9.42,GL,1595681518
59,Toppenish,46.38,-120.31,55.0,93,1,3.58,US,1595681518
60,Albany,42.6,-73.97,73.0,77,18,3.4,US,1595681518
61,Avera,33.19,-82.53,77.0,71,1,4.27,US,1595681518
62,Bahía Blanca,-38.72,-62.27,40.14,72,0,13.02,AR,1595681518
63,Port Alfred,-33.59,26.89,80.13,22,0,12.28,ZA,1595681518
64,Tsimmerbude,54.67,20.13,68.0,68,75,13.42,RU,1595681519
65,Severo-Kuril'sk,50.68,156.12,48.56,85,100,9.64,RU,1595681519
66,Saint Paul Harbor,57.79,-152.41,53.6,81,90,9.17,US,1595681519
67,Krasnyy Yar,46.53,48.35,89.6,14,100,8.95,RU,1595681519
68,Grand-Lahou,5.14,-5.02,79.56,73,9,10.74,CI,1595681520
69,Grand Gaube,-20.01,57.66,70.0,53,3,8.01,MU,1595681520
70,Morón,-34.65,-58.62,43.0,69,0,5.01,AR,1595681520
71,Vaini,-21.2,-175.2,71.6,83,75,8.05,TO,1595681520
72,Bethel,41.37,-73.41,71.6,88,1,4.25,US,1595681520
73,Santa Marinella,42.03,11.85,84.99,38,0,1.99,IT,1595681521
74,Manakara,-22.13,48.02,68.31,66,1,11.54,MG,1595681521
75,Lorengau,-2.02,147.27,82.69,79,100,10.56,PG,1595681521
76,Tevriz,57.51,72.4,62.73,89,100,6.08,RU,1595681521
77,Hervey Bay,-25.3,152.85,64.99,100,90,8.05,AU,1595681311
78,Vestmannaeyjar,63.44,-20.27,53.6,71,20,6.93,IS,1595681522
79,Ust-Nera,64.57,143.2,69.85,45,27,1.16,RU,1595681522
80,Searcy,35.25,-91.74,75.99,100,1,3.67,US,1595681244
81,Faanui,-16.48,-151.75,77.27,78,0,14.27,PF,1595681522
82,Inírida,3.87,-67.92,77.56,85,77,0.47,CO,1595681522
83,Avarua,-21.21,-159.78,69.8,77,79,9.17,CK,1595681523
84,Vilhena,-12.74,-60.15,78.03,52,94,4.52,BR,1595681523
85,Dicabisagan,17.08,122.42,80.73,80,100,3.67,PH,1595681523
86,Vanimo,-2.67,141.3,80.15,82,100,4.7,PG,1595681523
87,Atuona,-9.8,-139.03,78.73,78,5,21.5,PF,1595681524
88,Butaritari,3.07,172.79,83.68,73,26,17.27,KI,1595681524
89,Sabang,5.89,95.32,84.49,67,100,2.15,ID,1595681524
90,Bela,25.93,81.98,92.08,54,12,7.63,IN,1595681524
91,Lompoc,34.64,-120.46,57.2,93,90,3.36,US,1595681524
92,Platteville,42.73,-90.48,72.0,100,75,6.93,US,1595681525
93,Gambo,4.65,22.26,88.88,48,87,3.22,CF,1595681525
94,Jamestown,42.1,-79.24,72.0,100,90,0.67,US,1595681525
95,Paamiut,61.99,-49.67,45.05,88,88,1.12,GL,1595681525
96,Lavrentiya,65.58,-171.0,40.73,89,18,3.24,RU,1595681525
97,Pribinić,44.61,17.69,69.8,73,40,16.11,BA,1595681525
98,La Ronge,55.1,-105.28,64.4,88,75,6.93,CA,1595681526
99,Tautira,-17.73,-149.15,73.4,78,75,3.36,PF,1595681526
100,Bambanglipuro,-7.95,110.28,74.03,80,100,10.22,ID,1595681327
101,Harbour Breton,47.48,-55.8,63.28,72,0,7.49,CA,1595681526
102,Cap Malheureux,-19.98,57.61,70.0,53,35,8.01,MU,1595681527
103,Tuktoyaktuk,69.45,-133.04,46.44,80,85,8.75,CA,1595681527
104,Constitución,-35.33,-72.42,48.36,62,100,2.77,CL,1595681527
105,Barrow,71.29,-156.79,33.8,86,90,2.44,US,1595681527
106,Bukama,-9.2,25.85,94.05,14,0,5.97,CD,1595681527
107,Kungurtug,50.6,97.52,69.12,48,100,5.99,RU,1595681528
108,Port Hardy,50.7,-127.42,52.11,87,30,1.41,CA,1595681528
109,Canmore,51.08,-115.35,42.01,93,1,3.36,CA,1595681283
110,George Town,5.41,100.34,84.2,74,20,6.93,MY,1595681528
111,Castro,-24.79,-50.01,64.9,57,0,12.06,BR,1595681528
112,Mayor Pablo Lagerenza,-19.93,-60.77,53.38,55,100,8.48,PY,1595681528
113,Rio Grande,-32.03,-52.1,48.2,81,90,11.41,BR,1595681529
114,Dunedin,-45.87,170.5,46.99,69,0,9.08,NZ,1595681529
115,Mataura,-46.19,168.86,41.92,91,29,4.85,NZ,1595681529
116,Aykhal,66.0,111.5,55.4,87,90,8.95,RU,1595681529
117,Kalmar,56.66,16.36,71.01,52,56,14.99,SE,1595681529
118,Itigi,-5.7,34.48,82.18,24,24,7.18,TZ,1595681530
119,São Filipe,14.9,-24.5,79.74,77,99,4.23,CV,1595681530
120,Mulchén,-37.72,-72.23,41.05,89,100,5.48,CL,1595681530
121,Sept-Îles,50.2,-66.38,70.0,68,40,8.05,CA,1595681396
122,Hong Kong,22.29,114.16,87.8,58,20,11.41,HK,1595681376
123,Half Moon Bay,37.46,-122.43,57.99,87,90,9.17,US,1595681530
124,Hasaki,35.73,140.83,75.2,94,75,5.82,JP,1595681531
125,Clyde River,70.47,-68.59,48.2,81,1,9.17,CA,1595681531
126,Quatre Cocos,-20.21,57.76,70.0,60,75,14.99,MU,1595681531
127,Balkhash,46.84,74.98,83.08,30,0,16.6,KZ,1595681531
128,Bushehr,28.97,50.84,98.6,53,0,13.87,IR,1595681531
129,Bowen,-20.02,148.23,61.0,93,40,4.7,AU,1595681532
130,San Jose,37.34,-121.89,57.2,82,1,8.05,US,1595681271
131,Wanning,18.8,110.4,83.61,79,100,9.06,CN,1595681532
132,Klaksvík,62.23,-6.59,53.6,93,100,21.92,FO,1595681532
133,Sorong,-0.88,131.25,78.37,90,100,15.39,ID,1595681532
134,De-Kastri,51.47,140.78,52.3,90,0,1.92,RU,1595681533
135,Beroroha,-21.67,45.17,78.04,31,0,16.55,MG,1595681533
136,Pacific Grove,36.62,-121.92,59.0,82,90,6.93,US,1595681533
137,Cherskiy,68.75,161.3,65.98,61,6,7.9,RU,1595681533
138,Saskylakh,71.92,114.08,44.94,74,100,21.07,RU,1595681533
139,Te Anau,-45.42,167.72,43.16,86,86,4.99,NZ,1595681533
140,Idaho Falls,43.47,-112.03,54.0,93,1,2.37,US,1595681534
141,Cabo San Lucas,22.89,-109.91,79.0,78,5,9.17,MX,1595681448
142,Kaitangata,-46.28,169.85,46.99,66,0,4.0,NZ,1595681534
143,Mineros,-17.12,-63.23,51.8,62,90,20.8,BO,1595681534
144,Pevek,69.7,170.31,44.83,83,0,4.68,RU,1595681534
145,San Patricio,19.22,-104.7,80.6,74,90,3.8,MX,1595681534
146,City of San Pedro,14.35,121.02,78.8,88,80,8.05,PH,1595681332
147,Pundaguitan,6.37,126.17,83.3,75,100,11.01,PH,1595681534
148,Hobyo,5.35,48.53,80.65,67,99,27.02,SO,1595681535
149,Hithadhoo,-0.6,73.08,82.89,73,100,17.25,MV,1595681535
150,Puerto Colombia,10.99,-74.95,78.8,94,75,2.24,CO,1595681535
151,Vardø,70.37,31.11,60.8,77,9,11.41,NO,1595681535
152,Necochea,-38.55,-58.74,37.99,83,0,11.01,AR,1595681535
153,Saint-Philippe,-21.36,55.77,69.8,52,75,23.04,RE,1595681535
154,Cidreira,-30.18,-50.21,51.01,87,100,16.84,BR,1595681536
155,Ust-Tsilma,65.44,52.15,80.28,33,20,4.5,RU,1595681536
156,Peniche,39.36,-9.38,78.01,73,0,15.99,PT,1595681536
157,Albertville,34.27,-86.21,77.0,78,1,2.44,US,1595681536
158,Jashpurnagar,22.9,84.15,78.85,78,32,6.49,IN,1595681536
159,Tonstad,58.66,6.72,66.99,59,75,10.29,NO,1595681536
160,Iqaluit,63.75,-68.51,46.4,81,75,2.24,CA,1595681326
161,Kavieng,-2.57,150.8,83.73,77,100,17.65,PG,1595681537
162,Merauke,-8.47,140.33,77.27,84,47,16.75,ID,1595681537
163,Richards Bay,-28.78,32.04,76.71,40,0,14.85,ZA,1595681537
164,Ancud,-41.87,-73.82,52.0,87,40,8.05,CL,1595681537
165,Khatanga,71.97,102.5,46.08,74,76,10.98,RU,1595681537
166,Dalbandin,28.89,64.41,108.68,9,24,4.43,PK,1595681537
167,Vila Franca do Campo,37.72,-25.43,71.6,68,20,9.17,PT,1595681538
168,Beni,0.5,29.47,76.32,73,15,3.49,CD,1595681538
169,Ripoll,42.2,2.19,77.0,70,8,1.99,ES,1595681538
170,Mizdah,31.45,12.98,97.88,11,0,9.37,LY,1595681538
171,Nikolskoye,59.7,30.79,60.8,87,75,6.71,RU,1595681538
172,Garoowe,8.41,48.48,89.17,34,19,26.31,SO,1595681538
173,Ahipara,-35.17,173.17,50.56,80,23,4.59,NZ,1595681539
174,Solnechnyy,50.72,136.63,61.32,65,100,2.8,RU,1595681539
175,Beyneu,45.32,55.2,98.4,13,99,6.78,KZ,1595681539
176,Kabalo,-6.05,26.92,94.75,17,0,8.12,CD,1595681539
177,Souillac,-20.52,57.52,69.8,60,75,14.99,MU,1595681539
178,Ciénaga,11.01,-74.25,78.8,94,75,2.24,CO,1595681539
179,Kiama,-34.68,150.87,57.0,93,100,3.33,AU,1595681540
180,Qinzhou,21.95,108.62,83.95,75,51,9.98,CN,1595681540
181,Rush,53.52,-6.09,64.0,77,75,10.29,IE,1595681540
182,San Pedro Sacatepéquez,14.97,-91.77,73.4,88,40,2.95,GT,1595681540
183,Kyzyl-Suu,42.34,78.0,72.45,45,0,3.78,KG,1595681540
184,Dikson,73.51,80.55,41.22,84,0,17.78,RU,1595681541
185,Rocha,-34.48,-54.33,45.5,71,99,13.13,UY,1595681541
186,Knysna,-34.04,23.05,80.6,20,0,16.11,ZA,1595681541
187,Los Llanos de Aridane,28.66,-17.92,77.0,65,6,14.99,ES,1595681541
188,Sitka,57.05,-135.33,55.4,87,90,6.93,US,1595681541
189,Airai,-8.93,125.41,53.83,100,95,3.69,TL,1595681542
190,Effingham County,32.37,-81.33,78.8,88,75,3.36,US,1595681292
191,Ambilobe,-13.2,49.05,75.18,47,100,7.65,MG,1595681542
192,Bolgatanga,10.79,-0.85,84.33,64,95,8.88,GH,1595681542
193,Chachapoyas,-6.23,-77.87,56.26,81,54,2.39,PE,1595681542
194,Esmeraldas,-19.76,-44.31,68.0,68,0,13.87,BR,1595681542
195,Lázaro Cárdenas,17.96,-102.2,77.74,83,39,4.76,MX,1595681543
196,Bengkulu,-3.8,102.27,78.26,88,76,9.37,ID,1595681346
197,Morondava,-20.28,44.28,77.18,46,0,12.03,MG,1595681543
198,Mahébourg,-20.41,57.7,69.8,60,75,14.99,MU,1595681543
199,Gouré,13.98,10.27,91.99,52,28,3.0,NE,1595681543
200,Chimbote,-9.09,-78.58,61.68,85,94,5.26,PE,1595681544
201,Vysokogornyy,50.12,139.15,49.69,93,66,3.04,RU,1595681544
202,Rawson,-43.3,-65.1,46.62,56,100,24.67,AR,1595681373
203,Manggar,-2.88,108.27,81.07,75,80,16.11,ID,1595681544
204,Isangel,-19.55,169.27,73.4,78,45,6.93,VU,1595681544
205,Shanghai,31.22,121.46,82.99,74,20,8.95,CN,1595681376
206,Novyy Nekouz,57.9,38.07,67.66,58,100,7.18,RU,1595681545
207,Alenquer,-1.94,-54.74,80.6,88,40,4.7,BR,1595681545
208,Provideniya,64.38,-173.3,47.8,80,0,2.42,RU,1595681545
209,Shingū,33.73,135.98,74.61,93,100,0.63,JP,1595681545
210,Longyearbyen,78.22,15.64,68.0,68,75,13.87,SJ,1595681545
211,Hermanus,-34.42,19.23,63.0,79,0,5.99,ZA,1595681545
212,Mataram,-8.58,116.12,73.4,78,40,4.7,ID,1595681399
213,Mossamedes,-15.2,12.15,75.2,69,90,11.41,AO,1595681546
214,Teknāf,20.86,92.31,82.78,81,47,6.11,BD,1595681546
215,Ocean City,39.28,-74.57,78.01,94,40,3.83,US,1595681546
216,Putyatino,54.16,41.12,68.86,49,38,5.57,RU,1595681546
217,Camopi,3.17,-52.32,82.47,72,26,4.54,GF,1595681546
218,Kuytun,54.34,101.5,65.17,62,94,2.71,RU,1595681547
219,Mamakan,57.82,114.0,60.76,69,0,1.28,RU,1595681547
220,Nouakchott,18.09,-15.98,87.8,58,40,17.22,MR,1595681547
221,Port Hawkesbury,45.62,-61.35,71.01,83,1,3.36,CA,1595681547
222,Sampit,-2.53,112.95,75.13,85,0,4.72,ID,1595681547
223,Port Lincoln,-34.73,135.87,54.07,81,0,4.38,AU,1595681548
224,Bambous Virieux,-20.34,57.76,70.0,60,75,14.99,MU,1595681548
225,Henties Bay,-22.12,14.28,81.12,22,0,5.39,NA,1595681548
226,Mana,5.66,-53.78,82.22,72,27,6.44,GF,1595681548
227,Vestmanna,62.16,-7.17,53.6,93,100,21.92,FO,1595681548
228,Geraldton,-28.77,114.6,55.4,87,0,6.93,AU,1595681548
229,Stende,57.15,22.53,68.0,56,0,8.05,LV,1595681548
230,Najrān,17.49,44.13,98.6,23,20,9.17,SA,1595681549
231,Pervomayskiy,53.25,40.29,70.23,46,0,3.27,RU,1595681549
232,Carlisle,40.2,-77.19,75.99,96,1,1.88,US,1595681489
233,Yichun,47.7,128.9,67.19,92,26,3.91,CN,1595681549
234,Vilyuysk,63.76,121.62,62.4,72,36,7.78,RU,1595681549
235,Ilulissat,69.22,-51.1,48.2,81,75,10.29,GL,1595681549
236,Calvinia,-31.47,19.78,70.07,23,0,21.79,ZA,1595681550
237,St. Marys,30.73,-81.55,84.99,89,40,5.82,US,1595681550
238,Townsville,-19.25,146.8,66.2,93,0,5.82,AU,1595681550
239,St. George's,12.06,-61.75,75.2,88,20,9.17,GD,1595681429
240,Orlovskiy,46.87,42.06,88.48,24,27,7.81,RU,1595681550
241,Caceres,39.52,-6.37,99.0,21,0,5.99,ES,1595681550
242,Kununurra,-15.77,128.73,62.6,30,0,11.36,AU,1595681551
243,Bandarbeyla,9.49,50.81,86.18,50,24,27.72,SO,1595681551
244,Egvekinot,66.32,-179.17,48.2,86,100,4.5,RU,1595681551
245,East London,-33.02,27.91,86.0,9,0,4.7,ZA,1595681551
246,Lüderitz,-26.65,15.16,73.47,26,0,6.04,NA,1595681551
247,Española,35.99,-106.08,60.01,100,90,6.93,US,1595681548
248,Anadyr,64.75,177.48,55.4,58,40,4.47,RU,1595681552
249,Andijan,40.78,72.34,93.2,28,32,6.71,UZ,1595681552
250,Douglas,41.3,-96.17,78.8,83,40,5.82,US,1595681552
251,Camocim,-2.9,-40.84,86.0,53,0,10.27,BR,1595681523
252,Saint Anthony,45.02,-93.22,81.0,74,1,11.41,US,1595681553
253,Tiksi,71.69,128.87,43.79,96,100,16.37,RU,1595681553
254,Kiryat Gat,31.61,34.76,91.99,35,0,1.99,IL,1595681554
255,Kingsland,30.8,-81.69,84.99,56,99,3.2,US,1595681554
256,Jizan,17.33,42.67,96.8,67,20,11.41,SA,1595681554
257,Marawi,8.0,124.29,79.0,87,100,5.99,PH,1595681554
258,Thompson,55.74,-97.86,64.4,100,90,3.36,CA,1595681554
259,Jamame,0.07,42.75,82.78,57,0,21.97,SO,1595681555
260,Saint Andrews,34.05,-81.13,78.01,94,40,3.89,US,1595681502
261,Port-Cartier,50.03,-66.87,70.0,68,40,8.05,CA,1595681555
262,Kawambwa,-9.79,29.08,78.66,24,0,7.67,ZM,1595681555
263,Mongomo,1.63,11.31,80.53,66,87,2.71,GQ,1595681555
264,Muli,2.92,73.57,82.49,72,97,9.51,MV,1595681555
265,Nara,34.69,135.8,75.99,94,100,6.26,JP,1595681556
266,Yatou,37.15,122.38,70.23,76,88,5.48,CN,1595681556
267,Manuk Mangkaw,4.8,119.85,85.39,65,1,7.65,PH,1595681556
268,Maroua,10.59,14.32,91.4,59,40,3.36,CM,1595681556
269,Yanam,16.73,82.22,91.4,63,20,3.36,IN,1595681557
270,Nānākuli,21.39,-158.15,80.01,78,1,3.36,US,1595681557
271,Sémbé,1.65,14.58,84.81,59,72,3.51,CG,1595681557
272,Kosikha,53.36,84.58,68.0,68,20,13.42,RU,1595681557
273,Ushtobe,45.25,77.98,92.97,15,91,8.57,KZ,1595681557
274,Shizunai-furukawachō,42.33,142.37,64.4,89,100,9.64,JP,1595681557
275,Saint-Augustin,51.23,-58.65,63.41,76,100,3.76,CA,1595681558
276,Balsas,-7.53,-46.04,84.34,36,43,10.4,BR,1595681361
277,Camargo,27.67,-105.17,69.78,71,97,4.79,MX,1595681558
278,Whitianga,-36.83,175.7,46.0,96,26,5.55,NZ,1595681558
279,Itarema,-2.92,-39.92,84.65,56,0,11.86,BR,1595681558
280,Taltal,-25.4,-70.48,67.57,23,0,2.91,CL,1595681558
281,Norman Wells,65.28,-126.83,46.4,87,40,3.36,CA,1595681558
282,Mayya,61.73,130.28,68.0,94,75,4.47,RU,1595681559
283,Coutances,49.05,-1.43,66.0,88,75,16.11,FR,1595681559
284,Alice Springs,-23.7,133.88,50.0,54,0,5.82,AU,1595681321
285,Na Wa,17.49,104.1,91.99,70,20,3.36,TH,1595681559
286,Aranda de Duero,41.67,-3.69,90.07,19,0,9.84,ES,1595681559
287,Fountain Hills,33.61,-111.72,82.4,57,1,5.82,US,1595681559
288,Petropavlovsk-Kamchatskiy,53.05,158.65,51.8,100,100,2.24,RU,1595681560
289,Jumla,29.27,82.18,67.33,70,33,3.0,NP,1595681560
290,Mariehamn,60.1,19.93,64.4,59,20,8.05,AX,1595681560
291,Victoria Point,-27.58,153.3,62.01,96,70,3.0,AU,1595681560
292,Cabra,37.47,-4.44,102.99,17,0,1.99,ES,1595681561
293,Cayenne,4.93,-52.33,80.6,88,75,8.9,GF,1595681545
294,Naze,28.37,129.48,82.4,88,75,6.93,JP,1595681561
295,Sohag,26.56,31.69,104.0,17,0,18.34,EG,1595681561
296,Sfântu Gheorghe,45.87,25.78,66.99,69,77,5.86,RO,1595681561
297,Portales,34.19,-103.33,71.01,82,1,8.05,US,1595681561
298,Bāli Chak,22.37,87.55,87.49,69,0,11.12,IN,1595681561
299,Springbok,-29.66,17.89,71.96,22,0,14.2,ZA,1595681562
300,Maitum,6.04,124.5,79.11,80,100,4.9,PH,1595681562
301,Tual,-5.67,132.75,79.88,81,100,24.14,ID,1595681562
302,Carnarvon,-24.87,113.63,62.6,93,0,5.82,AU,1595681482
303,Kudāl,16.03,73.68,80.13,85,100,9.84,IN,1595681562
304,Pisco,-13.7,-76.22,57.0,93,20,6.93,PE,1595681562
305,Dāmghān,36.17,54.35,88.81,21,98,30.51,IR,1595681563
306,Saint-Pierre,-21.34,55.48,69.8,52,75,23.04,RE,1595681563
307,San Policarpo,12.18,125.51,82.83,80,5,4.14,PH,1595681563
308,Majene,-3.54,118.97,78.17,83,82,10.83,ID,1595681563
309,Tromsø,69.65,18.96,60.8,55,75,43.62,NO,1595681563
310,Codrington,-38.27,141.97,43.32,91,0,6.17,AU,1595681563
311,Orlik,52.52,99.83,63.57,46,6,1.83,RU,1595681564
312,Salinas,36.68,-121.66,60.8,77,90,3.36,US,1595681564
313,Labuhan,-6.88,112.21,76.62,72,83,7.96,ID,1595681564
314,Saint-Joseph,-21.37,55.62,69.8,52,75,23.04,RE,1595681564
315,Puerto del Rosario,28.5,-13.86,78.8,74,0,17.22,ES,1595681564
316,Kitgum,3.28,32.89,75.76,78,58,3.09,UG,1595681564
317,Iquique,-20.22,-70.14,51.8,76,0,7.14,CL,1595681565
318,Kieta,-6.22,155.63,79.3,80,99,7.23,PG,1595681565
319,Sawākin,19.11,37.33,103.44,29,80,14.97,SD,1595681565
320,Kamaishi,39.27,141.88,69.44,90,100,4.52,JP,1595681565
321,Gushikawa,26.35,127.87,82.4,88,90,8.05,JP,1595681565
322,Goderich,43.75,-81.72,71.01,84,92,2.98,CA,1595681565
323,Watertown,42.37,-71.18,79.0,83,1,3.02,US,1595681566
324,Iberia,29.95,-91.75,80.6,94,20,9.17,US,1595681566
325,Bontang,0.13,117.5,78.89,82,88,6.49,ID,1595681566
326,Kiel,54.32,10.13,71.6,64,75,8.05,DE,1595681299
327,Vitim,59.45,112.56,61.61,59,6,4.54,RU,1595681567
328,Fengrun,39.83,118.12,81.91,49,100,7.63,CN,1595681567
329,São João da Barra,-21.64,-41.05,75.2,69,0,5.82,BR,1595681567
330,San Rafael,-34.62,-68.33,44.98,47,100,9.24,AR,1595681567
331,Darhan,49.49,105.92,60.12,93,100,7.63,MN,1595681567
332,Malinyi,-8.93,36.13,84.09,37,66,1.74,TZ,1595681568
333,Beirut,33.89,35.49,86.0,66,0,13.87,LB,1595681446
334,Mikuni,36.22,136.15,77.0,78,75,1.12,JP,1595681568
335,Negara,-8.32,114.6,74.03,77,75,10.18,ID,1595681568
336,Sambava,-14.27,50.17,72.32,72,100,21.5,MG,1595681568
337,Bundaberg,-24.85,152.35,64.99,100,90,8.05,AU,1595681569
338,Huangzhai,38.08,112.66,64.4,82,40,2.24,CN,1595681569
339,Srandakan,-7.94,110.25,74.07,80,100,9.78,ID,1595681569
340,Carutapera,-1.2,-46.02,85.1,64,14,6.62,BR,1595681569
341,Pochutla,15.74,-96.47,73.99,86,100,4.03,MX,1595681570
342,Katobu,-4.94,122.53,73.11,86,72,5.39,ID,1595681570
343,Zaoyang,32.13,112.75,73.0,92,100,5.32,CN,1595681570
344,Sioux Lookout,50.1,-91.92,69.8,94,90,14.29,CA,1595681570
345,Beringovskiy,63.05,179.32,52.0,78,0,5.53,RU,1595681571
346,Bhadrāchalam,17.67,80.88,79.47,87,100,2.01,IN,1595681571
347,Tilichiki,60.47,166.1,52.88,76,0,5.61,RU,1595681571
348,Port Elizabeth,-33.92,25.57,82.4,17,0,17.22,ZA,1595681325
349,Mandalgovi,45.76,106.27,63.54,75,100,17.98,MN,1595681572
350,Quzhou,28.96,118.87,78.82,86,59,2.55,CN,1595681572
351,Kamenka,51.32,42.77,78.01,32,100,1.99,RU,1595681572
352,Zemio,5.03,25.14,77.85,85,100,2.13,CF,1595681572
353,Qasigiannguit,68.82,-51.19,48.2,81,75,10.29,GL,1595681572
354,Dinguiraye,11.3,-10.72,81.91,70,100,3.49,GN,1595681573
355,Havre-St-Pierre,50.23,-63.6,64.4,77,40,3.36,CA,1595681573
356,Aranos,-24.13,19.12,71.22,23,0,12.12,NA,1595681573
357,Sirohi,24.88,72.87,92.05,48,59,2.89,IN,1595681573
358,Lagunas,-5.23,-75.68,74.05,93,96,1.66,PE,1595681573
359,Río Gallegos,-51.62,-69.22,30.2,86,100,17.22,AR,1595681362
360,Jinchang,38.5,102.17,80.89,23,0,10.2,CN,1595681574
361,Tabio,4.92,-74.09,51.8,100,75,2.24,CO,1595681574
362,Mirny,62.54,113.96,62.6,59,75,11.18,RU,1595681574
363,Emba,48.83,58.14,85.48,24,9,12.73,KZ,1595681574
364,Djibouti,11.5,42.5,105.8,26,20,8.05,DJ,1595681574
365,Waddān,29.16,16.14,98.38,14,0,11.92,LY,1595681574
366,Bor,56.36,44.07,69.8,46,75,6.71,RU,1595681575
367,Ugoofaaru,5.67,73.0,82.42,76,99,11.1,MV,1595681575
368,Saint Paul,44.94,-93.09,81.0,83,20,8.05,US,1595681575
369,Chino Hills,33.99,-117.76,64.99,77,1,2.95,US,1595681575
370,Kavaratti,10.57,72.64,81.91,76,100,16.15,IN,1595681576
371,Trelew,-43.25,-65.31,46.63,55,100,23.6,AR,1595681576
372,Susanville,40.42,-120.65,57.2,58,1,5.82,US,1595681576
373,Omboué,-1.57,9.26,78.55,65,99,8.37,GA,1595681576
374,Warri,5.52,5.75,82.8,74,50,10.49,NG,1595681576
375,Saint George,37.1,-113.58,73.99,49,1,6.93,US,1595681537
376,Ngunguru,-35.62,174.5,43.0,3,2,1.01,NZ,1595681577
377,Key West,24.56,-81.78,84.2,79,20,10.29,US,1595681490
378,Lerwick,60.15,-1.15,57.2,93,75,21.92,GB,1595681361
379,Pacifica,37.61,-122.49,57.2,82,75,6.31,US,1595681401
380,Nioro,13.35,-15.75,88.9,60,51,9.13,GM,1595681577
381,Elbistan,38.21,37.2,95.25,17,62,3.09,TR,1595681577
382,Ishigaki,24.34,124.16,85.26,81,100,15.35,JP,1595681578
383,Santiago del Estero,-27.8,-64.26,49.6,47,0,8.81,AR,1595681578
384,Port Blair,11.67,92.75,84.18,75,11,1.63,IN,1595681578
385,Charter Township of Clinton,42.59,-82.92,73.99,100,75,2.73,US,1595681578
386,Hualmay,-11.1,-77.61,62.13,79,100,4.34,PE,1595681578
387,Porto Murtinho,-21.7,-57.88,55.74,71,100,8.16,BR,1595681578
388,Touros,-5.2,-35.46,78.8,74,40,12.75,BR,1595681579
389,Niono,14.25,-5.99,92.7,44,100,10.04,ML,1595681579
390,Ribeira Grande,38.52,-28.7,69.8,94,75,2.24,PT,1595681579
391,Kysyl-Syr,63.9,122.76,61.65,82,0,7.43,RU,1595681579
392,Buchanan,5.88,-10.05,78.8,83,75,3.36,LR,1595681579
393,Laguna,38.42,-121.42,57.99,82,1,5.82,US,1595681580
394,Loa Janan,-0.58,117.09,74.03,97,28,2.42,ID,1595681580
395,Chlórakas,34.8,32.41,91.0,66,20,16.11,CY,1595681580
396,Constantine,36.37,6.61,93.2,24,20,5.82,DZ,1595681580
397,Loikaw,19.67,97.21,73.83,87,99,4.23,MM,1595681581
398,Gombong,-7.61,109.51,73.51,80,97,7.11,ID,1595681581
399,Santa Rosa,14.31,121.11,78.8,88,77,8.05,PH,1595681581
400,Tomatlán,19.93,-105.25,74.16,92,7,2.33,MX,1595681581
401,Plettenberg Bay,-34.05,23.37,79.63,24,0,13.0,ZA,1595681581
402,Mehamn,71.04,27.85,65.17,51,0,14.41,NO,1595681581
403,Novoagansk,61.94,76.66,61.81,69,100,6.64,RU,1595681582
404,Portland,45.52,-122.68,52.0,91,2,3.96,US,1595681318
405,Batemans Bay,-35.72,150.18,55.0,97,100,5.44,AU,1595681582
406,Vila Velha,-20.33,-40.29,75.99,73,0,4.7,BR,1595681582
407,Hede,33.77,120.25,69.85,84,100,3.0,CN,1595681582
408,Berlin,52.52,13.41,81.0,53,20,6.93,DE,1595681314
409,Matara,5.95,80.54,79.59,85,100,9.6,LK,1595681583
410,Sibolga,1.74,98.78,77.85,83,100,3.24,ID,1595681583
411,San Andrés,12.58,-81.7,82.4,78,40,5.82,CO,1595681540
412,Makkah al Mukarramah,21.43,39.83,104.32,19,11,15.75,SA,1595681583
413,Quelimane,-17.88,36.89,71.6,73,40,2.24,MZ,1595681583
414,Tobol'sk,58.2,68.27,65.5,49,97,7.56,RU,1595681584
415,Yar-Sale,66.83,70.83,65.48,58,43,5.17,RU,1595681584
416,Borogontsy,62.67,131.17,65.93,83,100,1.66,RU,1595681584
417,Lakhipur,26.03,90.3,83.12,80,100,5.59,IN,1595681584
418,Yangi Marg`ilon,40.43,71.72,95.0,20,92,9.17,UZ,1595681584
419,Leningradskiy,69.38,178.42,48.42,72,87,9.62,RU,1595681584
420,Suntar,62.14,117.63,59.7,76,0,6.55,RU,1595681585
421,Batticaloa,7.71,81.69,84.11,72,63,9.95,LK,1595681585
422,Valleyview,55.07,-117.29,49.95,78,99,7.23,CA,1595681585
423,Ossora,59.24,163.07,59.11,76,0,4.52,RU,1595681585
424,Parambu,-6.21,-40.69,79.07,46,2,11.12,BR,1595681585
425,Sokoto,13.06,5.24,91.81,42,1,1.03,NG,1595681585
426,Bhatkal,13.97,74.57,79.95,81,100,9.4,IN,1595681585
427,Santa Elena,-2.23,-80.85,67.75,83,98,6.64,EC,1595681502
428,Ryōtsu-minato,38.08,138.43,73.4,100,100,1.12,JP,1595681586
429,Hailar,49.2,119.7,70.0,74,23,6.53,CN,1595681586
430,Boa Vista,2.82,-60.67,78.8,83,75,3.36,BR,1595681586
431,Bosobolo,4.18,19.9,82.65,77,23,3.85,CD,1595681586
432,Betafo,-19.83,46.85,56.53,55,30,13.56,MG,1595681586
433,Vanavara,60.34,102.28,59.97,65,90,4.45,RU,1595681586
434,Poções,-14.53,-40.37,68.86,64,8,9.6,BR,1595681524
435,Kruisfontein,-34.0,24.73,82.99,19,0,13.0,ZA,1595681587
436,Lumut,4.23,100.63,84.2,83,20,3.36,MY,1595681587
437,Verāval,20.9,70.37,85.01,76,100,8.3,IN,1595681587
438,Babaeski,41.43,27.09,88.9,28,0,14.05,TR,1595681587
439,Tarko-Sale,64.92,77.78,68.86,44,0,13.85,RU,1595681587
440,Philadelphia,39.95,-75.16,78.01,88,90,4.7,US,1595681508
441,Petauke,-14.24,31.33,68.59,46,72,8.99,ZM,1595681588
442,Peace River,56.25,-117.29,51.01,93,20,3.56,CA,1595681588
443,Denia,38.84,0.11,87.01,70,0,13.0,ES,1595681588
444,Zhigansk,66.77,123.37,58.62,97,99,16.98,RU,1595681588
445,Yulara,-25.24,130.99,51.8,50,0,8.05,AU,1595681588
446,Noumea,-22.28,166.46,68.0,82,18,3.36,NC,1595681517
447,Abu Samrah,35.3,37.18,98.26,18,0,20.94,SY,1595681589
448,Øksfjord,70.24,22.35,69.8,37,60,31.09,NO,1595681589
449,Jūnāgarh,19.87,82.93,87.31,59,0,3.02,IN,1595681589
450,Kyren,51.68,102.14,65.17,69,0,1.25,RU,1595681590
451,Mountain Home,43.13,-115.69,60.8,44,1,12.75,US,1595681354
452,Luwuk,-0.95,122.79,77.5,78,59,4.88,ID,1595681590
453,Honolulu,21.31,-157.86,80.6,65,40,11.41,US,1595681295
454,Kurumkan,54.3,110.3,68.11,53,100,5.88,RU,1595681590
455,Guerrero Negro,27.98,-114.06,64.24,92,8,9.31,MX,1595681590
456,Begunitsy,59.59,29.32,60.8,87,75,6.71,RU,1595681591
457,Vinh,18.67,105.67,83.12,80,96,7.54,VN,1595681591
458,Padang,-0.95,100.35,78.64,80,95,4.0,ID,1595681591
459,Folkestone,51.08,1.18,64.99,100,100,13.0,GB,1595681591
460,Cam Ranh,11.92,109.16,87.8,74,20,9.17,VN,1595681591
461,Suez,29.97,32.53,100.13,19,0,8.81,EG,1595681338
462,Gibgos,13.86,123.77,81.93,78,100,3.96,PH,1595681592
463,Klyuchi,52.27,79.17,68.92,72,74,14.97,RU,1595681592
464,Mapastepec,15.43,-92.9,77.92,76,97,2.82,MX,1595681592
465,Karratha,-20.74,116.85,71.17,33,0,7.05,AU,1595681395
466,Khatassy,61.9,129.64,68.0,94,75,4.47,RU,1595681592
467,Ballina,-28.87,153.57,60.8,100,90,4.7,AU,1595681593
468,Camacha,33.08,-16.33,75.2,64,40,16.11,PT,1595681593
469,Tocopilla,-22.09,-70.2,66.81,34,0,1.59,CL,1595681593
470,Røros,62.57,11.38,55.4,66,35,3.36,NO,1595681593
471,Mildura,-34.2,142.15,48.2,100,3,4.7,AU,1595681593
472,Bathsheba,13.22,-59.52,84.2,79,40,27.51,BB,1595681594
473,Urucará,-2.54,-57.76,83.91,60,100,4.03,BR,1595681594
474,Laurel,39.1,-76.85,78.01,94,40,3.78,US,1595681594
475,Mozarlândia,-14.74,-50.57,84.65,32,0,4.88,BR,1595681594
476,Bubaque,11.28,-15.83,80.33,81,90,12.57,GW,1595681594
477,Praia,14.92,-23.51,84.2,70,75,9.17,CV,1595681594
478,Taoudenni,22.68,-3.98,116.19,9,0,16.53,ML,1595681594
479,Hay River,60.82,-115.8,50.0,100,40,2.24,CA,1595681595
480,Ternate,0.8,127.4,79.18,79,91,3.24,ID,1595681595
481,Kombissiri,12.07,-1.34,89.6,55,40,11.41,BF,1595681595
482,La Paz,-16.5,-68.15,28.4,92,40,4.7,BO,1595681545
483,Ust-Kuyga,70.02,135.6,74.01,41,83,5.73,RU,1595681595
484,Pangnirtung,66.15,-65.71,52.66,65,21,4.03,CA,1595681595
485,Asău,46.43,26.4,75.0,73,100,6.06,RO,1595681595
486,Port Macquarie,-31.43,152.92,57.2,100,75,5.82,AU,1595681596
487,Eyl,7.98,49.82,88.61,43,51,25.61,SO,1595681596
488,Pemberton,50.32,-122.8,55.45,66,76,0.51,CA,1595681596
489,Ostrovnoy,68.05,39.51,65.66,67,62,9.1,RU,1595681596
490,Padre Bernardo,-15.35,-48.5,77.56,43,0,9.8,BR,1595681597
491,Waingapu,-9.66,120.26,71.89,78,44,11.59,ID,1595681597
492,San Quintín,30.48,-115.95,64.27,84,98,6.93,MX,1595681597
493,Isla Vista,34.41,-119.86,60.01,93,1,2.86,US,1595681597
494,‘Ewa Beach,21.32,-158.01,80.6,78,1,3.36,US,1595681597
495,Meulaboh,4.14,96.13,79.05,84,100,4.63,ID,1595681598
496,Eltham,-39.43,174.3,46.0,92,10,1.01,NZ,1595681598
497,Chapais,49.78,-74.85,68.0,68,40,8.05,CA,1595681598
498,Wyndham,37.7,-77.61,77.0,88,1,3.76,US,1595681598
499,Seminole,28.71,-81.21,82.0,88,1,4.7,US,1595681598
500,Saint-Paul,-21.01,55.27,69.8,46,75,23.04,RE,1595681599
501,Uray,60.12,64.78,65.59,46,82,6.93,RU,1595681599
502,Shache,38.42,77.24,95.79,11,0,11.99,CN,1595681599
503,Boffa,10.17,-14.03,80.44,84,99,9.69,GN,1595681599
504,Tynda,55.17,124.72,62.26,93,100,2.48,RU,1595681599
505,Arboletes,8.85,-76.43,79.18,82,70,8.01,CO,1595681599
506,Seymchan,62.88,152.43,65.61,42,2,7.31,RU,1595681600
507,Nago,26.59,127.98,82.4,88,90,8.05,JP,1595681591
508,Deniliquin,-35.53,144.97,46.99,78,100,4.94,AU,1595681600
509,Porbandar,21.64,69.61,84.07,79,100,9.19,IN,1595681601
510,Flinders,-34.58,150.86,57.0,90,98,1.99,AU,1595681601
511,Badarwās,24.97,77.57,86.85,58,92,3.27,IN,1595681601
512,Tokur,53.13,132.9,58.46,82,57,0.87,RU,1595681601
513,Coihueco,-36.62,-71.83,42.8,87,100,10.29,CL,1595681601
514,Kuraymah,18.55,31.85,112.86,7,17,10.49,SD,1595681602
515,Yerbogachën,61.28,108.01,57.09,84,86,8.08,RU,1595681602
516,Miyako,39.64,141.95,67.91,93,100,1.28,JP,1595681602
517,Oranjemund,-28.55,16.43,77.11,22,0,7.29,NA,1595681602
518,Lavumisa,-27.31,31.89,75.02,36,0,8.81,SZ,1595681602
519,Tura,25.52,90.22,78.17,89,100,2.71,IN,1595681602
520,Atar,20.52,-13.05,98.6,30,0,6.93,MR,1595681603
521,San Cristobal,7.77,-72.22,75.2,94,40,6.93,VE,1595681603
522,Spokane,47.62,-117.37,53.6,62,1,3.69,US,1595681603
523,Shimoda,34.67,138.95,71.01,93,100,1.01,JP,1595681603
524,Novovasylivka,46.83,35.75,87.31,26,0,11.03,UA,1595681603
525,Maïné Soroa,13.21,12.02,92.19,41,100,7.81,NE,1595681604
526,Mangai,-4.05,19.53,94.15,30,66,2.53,CD,1595681604
527,Prainha,-1.8,-53.48,83.75,65,0,4.27,BR,1595681604
528,Perafita,41.18,-8.25,87.01,4,0,1.99,PT,1595681604
529,Daru,-9.08,143.21,77.14,89,100,16.96,PG,1595681604
530,Bud,39.45,-86.18,69.01,94,1,2.33,US,1595681604
531,Manbij,36.53,37.95,98.6,35,0,10.29,SY,1595681605
532,Chililabombwe,-12.36,27.82,77.14,25,0,6.53,ZM,1595681605
533,Nehe,48.48,124.83,79.45,50,15,9.08,CN,1595681605
534,Khasan,42.43,130.64,64.99,88,100,6.76,RU,1595681605
535,Katsuura,35.13,140.3,77.0,93,100,3.0,JP,1595681605
536,Launceston,-41.45,147.17,39.99,93,3,1.59,AU,1595681605
537,Mackay,-21.15,149.2,55.99,100,0,2.24,AU,1595681606
538,Riyadh,24.69,46.72,107.6,17,93,9.17,SA,1595681394
539,Pangoa,-12.12,-73.0,66.02,97,100,2.3,PE,1595681606
540,Turaif,31.67,38.66,102.2,12,0,9.17,SA,1595681606
541,Bayan,46.08,127.4,75.43,69,0,10.16,CN,1595681606
542,Tazovsky,67.47,78.7,61.34,59,100,10.83,RU,1595681607
543,Clevelândia,-26.4,-52.47,47.16,99,100,9.31,BR,1595681607
544,Raudeberg,61.99,5.14,64.4,63,67,6.93,NO,1595681607
545,Linhares,-19.39,-40.07,79.43,59,0,1.03,BR,1595681607
546,Dali,25.7,100.18,68.36,80,100,5.23,CN,1595681607
547,Bandrele,-12.91,45.19,78.8,61,75,17.22,YT,1595681608
548,Wad Rāwah,15.16,33.14,99.88,29,79,18.48,SD,1595681608
549,Nicoya,10.15,-85.45,73.4,100,98,1.12,CR,1595681608
550,Lufilufi,-13.87,-171.6,81.59,72,21,21.97,WS,1595681608
551,Opuwo,-18.06,13.84,77.36,18,0,10.42,NA,1595681608
552,Ndendé,-2.4,11.36,92.73,37,22,2.66,GA,1595681608
553,Magadan,59.57,150.8,51.58,92,14,5.79,RU,1595681609
554,Shkodër,42.07,19.51,89.6,33,20,11.41,AL,1595681609
